City_ID,City,Country,Date,Lat,Lng,Max Temp,Humidity,Cloudiness,Wind Speed,Weather Description,Rain Inches(last 3hrs),Snow Inches(last 3hrs)
0,Kankakee,US,2019-11-09 23:31:12,41.12,-87.86,44.6,56,1,4.7,clear sky,0.0,0.0
1,Plettenberg Bay,ZA,2019-11-09 23:31:12,-34.05,23.37,61.59,80,95,11.72,overcast clouds,0.0,0.0
2,Lishui,CN,2019-11-09 23:31:12,28.45,119.91,50.67,73,26,1.74,scattered clouds,0.0,0.0
3,Saint-Philippe,CA,2019-11-09 23:31:13,45.36,-73.48,37.0,64,90,11.41,overcast clouds,0.0,0.0
4,Baijiantan,CN,2019-11-09 23:31:13,45.63,85.18,38.21,50,90,5.75,overcast clouds,0.0,0.0
5,San Carlos De Bariloche,AR,2019-11-09 23:31:13,-41.13,-71.31,62.6,42,75,9.17,broken clouds,0.0,0.0
6,Khuzhir,RU,2019-11-09 23:31:13,53.19,107.35,26.8,63,100,24.67,overcast clouds,0.0,0.0
7,Deer Lake,CA,2019-11-09 23:31:13,49.18,-57.43,28.4,74,75,11.41,light snow,0.0,0.0
8,Rikitea,PF,2019-11-09 23:31:14,-23.12,-134.97,72.54,80,100,10.49,light rain,0.94,0.0
9,Westport,US,2019-11-09 23:31:14,41.14,-73.36,42.01,48,20,10.29,few clouds,0.0,0.0
10,Esperance,AU,2019-11-09 23:31:14,-33.86,121.89,78.8,19,94,20.8,overcast clouds,0.0,0.0
11,Shymkent,KZ,2019-11-09 23:31:14,42.31,69.59,37.4,51,27,4.47,mist,0.0,0.0
12,Umm Lajj,SA,2019-11-09 23:31:14,25.02,37.27,78.3,47,0,8.19,clear sky,0.0,0.0
13,Port Lincoln,AU,2019-11-09 23:31:15,-34.72,135.86,61.43,54,0,6.42,clear sky,0.0,0.0
14,Flinders,AU,2019-11-09 23:31:15,-34.58,150.85,73.99,34,90,9.17,overcast clouds,0.0,0.0
15,Cape Town,ZA,2019-11-09 23:30:02,-33.93,18.42,66.2,63,0,5.82,clear sky,0.0,0.0
16,Iskateley,RU,2019-11-09 23:31:15,67.68,53.15,1.44,96,0,7.61,clear sky,0.0,0.0
17,Atuona,PF,2019-11-09 23:31:15,-9.8,-139.03,80.31,74,1,11.5,clear sky,0.0,0.0
18,Rochester,US,2019-11-09 23:27:24,44.02,-92.46,37.99,95,90,4.7,light rain,0.0,0.0
19,Pochutla,MX,2019-11-09 23:31:16,15.74,-96.47,86.0,66,20,6.93,few clouds,0.0,0.0
20,Busselton,AU,2019-11-09 23:31:16,-33.64,115.35,71.01,59,51,9.62,light rain,0.19,0.0
21,Victoria,BN,2019-11-09 23:28:05,5.28,115.24,78.8,83,75,2.24,broken clouds,0.0,0.0
22,Soure,PT,2019-11-09 23:31:16,40.06,-8.63,57.2,82,75,14.99,broken clouds,0.0,0.0
23,Georgetown,GY,2019-11-09 23:31:09,6.8,-58.16,84.2,79,40,6.93,scattered clouds,0.0,0.0
24,Ribeira Grande,PT,2019-11-09 23:31:17,38.52,-28.7,61.84,80,0,7.58,clear sky,0.0,0.0
25,Chuy,UY,2019-11-09 23:31:17,-33.69,-53.46,64.44,84,100,11.3,overcast clouds,0.0,0.0
26,Ushuaia,AR,2019-11-09 23:26:38,-54.81,-68.31,44.6,52,40,1.36,scattered clouds,0.0,0.0
27,Esmeraldas,BR,2019-11-09 23:31:17,-19.76,-44.31,84.2,57,40,14.99,thunderstorm,0.0,0.0
28,San Patricio,PY,2019-11-09 23:31:17,-26.98,-56.83,77.67,83,98,6.78,light rain,0.25,0.0
29,Albany,US,2019-11-09 23:31:18,42.65,-73.75,36.0,34,40,8.05,scattered clouds,0.0,0.0
30,Faya,SA,2019-11-09 23:31:18,18.39,42.45,55.4,87,0,2.28,clear sky,0.0,0.0
31,Mahanoro,MG,2019-11-09 23:31:18,-19.9,48.8,78.69,83,75,12.71,light rain,0.5,0.0
32,Khandyga,RU,2019-11-09 23:31:18,62.65,135.58,-20.51,95,7,1.16,clear sky,0.0,0.0
33,Assiniboia,CA,2019-11-09 23:31:18,49.63,-105.99,20.21,84,100,14.14,light snow,0.0,0.13
34,Punta Arenas,CL,2019-11-09 23:26:33,-53.16,-70.91,46.4,52,0,8.05,clear sky,0.0,0.0
35,Puerto Ayora,EC,2019-11-09 23:31:19,-0.74,-90.35,77.0,65,75,11.41,broken clouds,0.0,0.0
36,Georgiyevka,RU,2019-11-09 23:31:19,52.25,40.45,42.15,76,88,10.04,overcast clouds,0.0,0.0
37,Clyde River,CA,2019-11-09 23:31:19,70.47,-68.59,17.6,85,90,28.86,light snow,0.0,0.0
38,Nantucket,US,2019-11-09 23:30:18,41.28,-70.1,37.99,64,1,6.93,clear sky,0.0,0.0
39,Port Alfred,ZA,2019-11-09 23:31:20,-33.59,26.89,64.99,87,99,7.0,overcast clouds,0.0,0.0
40,Massillon,US,2019-11-09 23:29:44,40.8,-81.52,37.4,51,75,9.17,broken clouds,0.0,0.0
41,Pithoragarh,IN,2019-11-09 23:31:20,29.59,80.22,48.43,87,0,2.55,clear sky,0.0,0.0
42,Torbay,CA,2019-11-09 23:31:21,47.66,-52.73,36.0,64,20,20.8,few clouds,0.0,0.0
43,Laramie,US,2019-11-09 23:26:31,41.31,-105.59,66.2,14,1,16.11,clear sky,0.0,0.0
44,Waingapu,ID,2019-11-09 23:31:21,-9.65,120.26,81.48,75,10,4.5,clear sky,0.0,0.0
45,Port Blair,IN,2019-11-09 23:31:22,11.67,92.75,81.32,75,80,1.14,light rain,0.38,0.0
46,Necochea,AR,2019-11-09 23:31:22,-38.55,-58.74,50.0,76,3,5.01,clear sky,0.0,0.0
47,Pangnirtung,CA,2019-11-09 23:31:23,66.15,-65.72,20.37,68,100,7.14,overcast clouds,0.0,0.0
48,Ulaangom,MN,2019-11-09 23:31:23,49.98,92.07,30.72,77,77,4.12,broken clouds,0.0,0.0
49,Souillac,FR,2019-11-09 23:31:23,45.6,-0.6,44.6,87,56,6.93,light rain,1.19,0.0
50,Arraial Do Cabo,BR,2019-11-09 23:31:23,-22.97,-42.02,74.35,92,100,12.64,overcast clouds,0.0,0.0
51,Kheda,IN,2019-11-09 23:31:26,22.75,72.68,73.4,78,77,4.7,haze,0.0,0.0
52,Ponta Do Sol,BR,2019-11-09 23:31:27,-20.63,-46.0,69.53,89,90,5.32,light rain,2.63,0.0
53,Castro,CL,2019-11-09 23:31:27,-42.48,-73.76,53.6,87,100,5.82,light rain,0.0,0.0
54,Varhaug,NO,2019-11-09 23:31:27,58.61,5.65,36.0,80,40,2.24,scattered clouds,0.0,0.0
55,Hermanus,ZA,2019-11-09 23:29:49,-34.42,19.24,64.0,85,82,11.99,broken clouds,0.0,0.0
56,Makurdi,NG,2019-11-09 23:31:27,7.73,8.54,79.92,60,87,4.25,overcast clouds,0.0,0.0
57,Pisco,PE,2019-11-09 23:31:04,-13.71,-76.2,71.6,30,26,16.11,scattered clouds,0.0,0.0
58,Sibiti,CG,2019-11-09 23:31:28,-3.69,13.35,70.48,97,93,1.57,light rain,0.88,0.0
59,Kearney,US,2019-11-09 23:27:25,40.7,-99.08,71.6,19,1,6.93,clear sky,0.0,0.0
60,Puerto Ayacucho,CO,2019-11-09 23:31:31,5.66,-67.63,82.4,78,40,6.93,thunderstorm,0.0,0.0
61,Keti Bandar,PK,2019-11-09 23:31:31,24.14,67.45,71.2,34,14,11.92,few clouds,0.0,0.0
62,Cidreira,BR,2019-11-09 23:31:31,-30.17,-50.22,71.02,87,100,22.44,overcast clouds,0.0,0.0
63,Havre-Saint-Pierre,CA,2019-11-09 23:31:32,50.23,-63.6,23.0,73,90,20.8,light snow,0.0,0.0
64,Grand Gaube,MU,2019-11-09 23:31:32,-20.01,57.66,70.0,94,20,5.82,few clouds,0.0,0.0
65,Mana,NG,2019-11-09 23:31:32,13.03,5.27,79.99,23,0,5.5,clear sky,0.0,0.0
66,Bathsheba,BB,2019-11-09 23:31:33,13.22,-59.52,78.8,88,40,23.04,shower rain,0.0,0.0
67,Katima Mulilo,NA,2019-11-09 23:31:33,-17.5,24.28,81.03,37,89,6.11,overcast clouds,0.0,0.0
68,Bambous Virieux,MU,2019-11-09 23:31:33,-20.34,57.76,70.0,94,20,5.82,few clouds,0.0,0.0
69,Vestmannaeyjar,IS,2019-11-09 23:31:33,63.44,-20.27,44.42,82,87,16.6,light rain,0.12,0.0
70,Impfondo,CD,2019-11-09 23:31:33,1.62,18.06,71.67,94,99,2.21,overcast clouds,0.0,0.0
71,New Norfolk,AU,2019-11-09 23:31:34,-42.78,147.06,62.01,41,40,19.46,scattered clouds,0.0,0.0
72,Airai,TL,2019-11-09 23:31:34,-8.93,125.41,81.25,31,36,7.52,scattered clouds,0.0,0.0
73,Grindavik,IS,2019-11-09 23:31:34,63.84,-22.43,41.0,86,75,3.36,light intensity drizzle rain,0.0,0.0
74,Governador Valadares,BR,2019-11-09 23:31:34,-18.85,-41.95,77.2,51,23,7.14,few clouds,0.0,0.0
75,Broome,GB,2019-11-09 23:31:35,52.47,1.45,44.01,87,73,8.05,broken clouds,0.0,0.0
76,Mount Gambier,AU,2019-11-09 23:31:35,-37.83,140.78,51.8,87,40,10.29,light intensity shower rain,0.0,0.0
77,Zhangye,CN,2019-11-09 23:31:35,38.94,100.46,33.57,28,0,3.94,clear sky,0.0,0.0
78,Carutapera,BR,2019-11-09 23:31:35,-1.2,-46.02,81.95,78,100,13.56,overcast clouds,0.0,0.0
79,Ouadda,CF,2019-11-09 23:31:36,8.07,22.4,68.83,47,59,2.82,broken clouds,0.0,0.0
80,San Cristobal,HN,2019-11-09 23:31:36,14.68,-86.92,67.24,92,42,6.35,light rain,1.56,0.0
81,Ponto Novo,BR,2019-11-09 23:31:36,-10.86,-40.13,77.67,61,25,17.22,scattered clouds,0.0,0.0
82,Izhevskoye,RU,2019-11-09 23:31:36,54.56,40.87,33.91,86,34,8.61,scattered clouds,0.0,0.0
83,Srivardhan,IN,2019-11-09 23:31:37,18.03,73.02,72.32,86,0,4.92,clear sky,0.0,0.0
84,Luderitz,NA,2019-11-09 23:31:37,-26.65,15.16,60.8,87,0,6.93,clear sky,0.0,0.0
85,Tasiilaq,GL,2019-11-09 23:31:37,65.61,-37.64,35.6,74,87,36.91,light rain,0.0,0.0
86,Caravelas,BR,2019-11-09 23:31:37,-17.73,-39.27,70.54,92,29,7.02,scattered clouds,0.0,0.0
87,Inhambane,MZ,2019-11-09 23:31:37,-23.87,35.38,74.08,80,93,11.72,light rain,0.19,0.0
88,Nokaneng,BW,2019-11-09 23:31:38,-19.66,22.19,79.3,46,74,2.26,light rain,1.75,0.0
89,Celestun,MX,2019-11-09 23:31:39,20.87,-90.4,80.28,79,27,20.07,scattered clouds,0.0,0.0
90,Cordeiro,BR,2019-11-09 23:31:39,-22.03,-42.36,67.98,98,100,1.61,moderate rain,4.87,0.0
91,Lompoc,US,2019-11-09 23:31:39,34.64,-120.46,78.01,72,1,12.75,clear sky,0.0,0.0
92,Nanortalik,GL,2019-11-09 23:31:39,60.14,-45.24,36.81,75,100,51.65,snow,0.0,7.13
93,Repatriacion,PY,2019-11-09 23:31:39,-25.53,-55.95,78.53,76,58,4.63,broken clouds,0.0,0.0
94,Saint George,GR,2019-11-09 23:31:40,39.45,22.34,51.8,93,49,4.7,scattered clouds,0.0,0.0
95,Belyy Yar,RU,2019-11-09 23:31:40,53.6,91.39,15.8,78,75,4.47,broken clouds,0.0,0.0
96,Salalah,OM,2019-11-09 23:31:40,17.01,54.1,78.8,74,40,3.36,scattered clouds,0.0,0.0
97,Natchitoches,US,2019-11-09 23:31:40,31.76,-93.09,55.4,58,1,2.62,clear sky,0.0,0.0
98,Zatoka,PL,2019-11-09 23:31:40,50.04,20.52,46.99,93,75,2.24,light rain,0.0,0.0
99,Athens,GR,2019-11-09 23:28:18,37.98,23.73,69.01,93,40,16.6,scattered clouds,0.0,0.0
100,Moose Factory,CA,2019-11-09 23:31:41,51.26,-80.61,14.0,85,90,3.36,light snow,0.0,0.0
101,Plainview,US,2019-11-09 23:31:36,34.18,-101.71,69.8,24,1,8.05,clear sky,0.0,0.0
102,Gunjur,GM,2019-11-09 23:31:42,13.18,-16.76,77.0,78,17,6.93,few clouds,0.0,0.0
103,Darovskoy,RU,2019-11-09 23:31:42,58.77,47.96,26.17,63,100,6.96,overcast clouds,0.0,0.0
104,Sorong,ID,2019-11-09 23:31:42,-0.86,131.25,82.58,73,68,2.84,broken clouds,0.0,0.0
105,Pamplona,ES,2019-11-09 23:31:42,42.82,-1.64,55.0,87,75,6.93,light rain,0.0,0.0
106,Oksbol,DK,2019-11-09 23:31:43,55.63,8.29,43.0,100,90,4.7,fog,0.0,0.0
107,Campoverde,EC,2019-11-09 23:31:43,-0.91,-78.62,55.4,82,75,6.93,shower rain,0.0,0.0
108,Margate,AU,2019-11-09 23:31:43,-43.03,147.26,62.01,41,40,19.46,scattered clouds,0.0,0.0
109,Panji,CN,2019-11-09 23:31:44,32.78,116.82,58.87,51,50,12.55,scattered clouds,0.0,0.0
110,Jijiga,ET,2019-11-09 23:31:44,9.35,42.8,58.91,87,27,4.81,scattered clouds,0.0,0.0
111,Apollonia,GR,2019-11-09 23:31:44,40.64,23.49,61.0,93,45,6.93,scattered clouds,0.0,0.0
112,Kualakapuas,ID,2019-11-09 23:31:45,-3.01,114.39,83.14,68,61,1.7,broken clouds,0.0,0.0
113,Marzuq,YE,2019-11-09 23:31:46,14.4,46.47,63.81,61,0,2.75,clear sky,0.0,0.0
114,Freeport,BS,2019-11-09 23:28:48,26.54,-78.7,73.4,73,40,16.11,scattered clouds,0.0,0.0
115,Jamestown,AU,2019-11-09 23:31:46,-33.21,138.6,65.61,30,0,4.09,clear sky,0.0,0.0
116,Vila Velha,BR,2019-11-09 23:31:46,-3.71,-38.6,86.0,74,80,10.29,broken clouds,0.0,0.0
117,East London,ZA,2019-11-09 23:31:46,-33.02,27.91,65.01,83,100,13.65,light rain,0.31,0.0
118,Qaqortoq,GL,2019-11-09 23:31:47,60.72,-46.03,44.6,39,100,39.15,light snow,0.0,0.31
119,Komsomolets,RU,2019-11-09 23:31:47,52.77,41.29,38.43,83,45,7.96,scattered clouds,0.0,0.0
120,Grafton,AU,2019-11-09 23:31:47,-29.69,152.93,73.4,19,0,4.7,clear sky,0.0,0.0
121,Corpus Christi,US,2019-11-09 23:31:00,27.8,-97.4,66.2,48,1,5.82,clear sky,0.0,0.0
122,Yellowknife,CA,2019-11-09 23:27:19,62.45,-114.38,-2.21,70,75,6.93,broken clouds,0.0,0.0
123,Lebu,ET,2019-11-09 23:31:48,8.96,38.73,57.2,62,20,2.24,few clouds,0.0,0.0
124,Rio Gallegos,AR,2019-11-09 23:31:48,-51.62,-69.22,46.4,45,0,20.8,clear sky,0.0,0.0
125,Carnarvon,ZA,2019-11-09 23:31:48,-30.97,22.13,63.36,35,98,5.37,overcast clouds,0.0,0.0
126,Segovia,ES,2019-11-09 23:31:48,40.95,-4.12,52.0,61,20,14.99,few clouds,0.0,0.0
127,Adrar,DZ,2019-11-09 23:31:48,27.87,-0.29,57.2,28,0,11.41,clear sky,0.0,0.0
128,Khandbari,NP,2019-11-09 23:31:49,27.38,87.21,44.13,67,30,6.2,scattered clouds,0.0,0.0
129,Mahebourg,MU,2019-11-09 23:31:49,-20.41,57.7,70.0,94,20,5.82,few clouds,0.0,0.0
130,Yol,IN,2019-11-09 23:31:49,32.18,76.38,57.0,21,0,3.49,clear sky,0.0,0.0
131,Sturgis,CA,2019-11-09 23:31:49,51.94,-102.54,10.33,85,84,12.01,broken clouds,0.0,0.0
132,Saldanha,PT,2019-11-09 23:31:50,41.42,-6.55,41.76,85,100,10.2,overcast clouds,0.0,0.0
133,Trelew,AR,2019-11-09 23:28:08,-43.25,-65.31,46.47,79,54,23.4,broken clouds,0.0,0.0
134,Port Hardy,CA,2019-11-09 23:31:45,50.7,-127.42,50.0,93,90,3.36,light intensity shower rain,0.0,0.0
135,Hithadhoo,MV,2019-11-09 23:31:50,-0.6,73.08,80.96,78,57,8.5,light rain,2.56,0.0
136,Constitucion,MX,2019-11-09 23:31:51,23.99,-104.67,77.0,25,75,4.7,broken clouds,0.0,0.0
137,Abalak,NE,2019-11-09 23:31:51,15.46,6.28,82.15,14,5,9.35,clear sky,0.0,0.0
138,San Joaquin,PH,2019-11-09 23:31:51,10.59,122.14,81.34,79,18,5.55,light rain,0.19,0.0
139,Thompson,CA,2019-11-09 23:29:51,55.74,-97.86,1.4,77,40,4.7,scattered clouds,0.0,0.0
140,Cravo Norte,CO,2019-11-09 23:31:52,6.3,-70.2,79.75,82,42,4.12,scattered clouds,0.0,0.0
141,Kidal,ML,2019-11-09 23:31:52,18.44,1.41,77.0,26,48,17.07,scattered clouds,0.0,0.0
142,Tabuk,PH,2019-11-09 23:31:52,17.41,121.44,72.45,93,100,10.09,light rain,0.69,0.0
143,Jacareacanga,BR,2019-11-09 23:31:52,-6.22,-57.76,72.73,95,100,2.15,light rain,1.44,0.0
144,Livingston,US,2019-11-09 23:31:52,32.58,-88.19,53.6,71,1,1.43,clear sky,0.0,0.0
145,Peniche,PT,2019-11-09 23:31:53,39.36,-9.38,57.99,82,75,14.99,broken clouds,0.0,0.0
146,Mattru,SL,2019-11-09 23:31:53,7.62,-11.83,75.7,91,6,2.1,clear sky,0.0,0.0
147,Kastamonu,TR,2019-11-09 23:31:53,41.38,33.78,48.49,57,0,0.4,clear sky,0.0,0.0
148,Kitimat,CA,2019-11-09 23:30:08,54.02,-128.69,50.0,87,75,19.46,light rain,0.0,0.0
149,La Ronge,CA,2019-11-09 23:31:53,55.1,-105.3,12.2,56,75,13.87,light snow,0.0,0.0
150,Ambilobe,MG,2019-11-09 23:31:54,-13.19,49.05,76.12,75,55,8.97,broken clouds,0.0,0.0
151,Cam Ranh,VN,2019-11-09 23:31:54,11.92,109.15,73.4,100,90,8.05,light rain,0.0,0.0
152,Rockingham,GB,2019-11-09 23:30:30,52.52,-0.72,42.01,93,40,9.17,light rain,0.0,0.0
153,Gazojak,TM,2019-11-09 23:31:54,41.19,61.4,46.11,38,0,6.67,clear sky,0.0,0.0
154,Zhanaozen,KZ,2019-11-09 23:31:55,43.35,52.85,48.92,40,0,8.16,clear sky,0.0,0.0
155,Nyamuswa,TZ,2019-11-09 23:31:55,-1.9,34.02,66.34,73,7,2.64,clear sky,0.0,0.0
156,Iracoubo,GF,2019-11-09 23:31:55,5.48,-53.21,81.82,84,34,11.61,scattered clouds,0.0,0.0
157,Dingzhou,CN,2019-11-09 23:31:55,38.51,115.0,44.6,56,50,2.24,scattered clouds,0.0,0.0
158,Ornskoldsvik,SE,2019-11-09 23:31:55,63.29,18.72,23.0,78,100,11.41,overcast clouds,0.0,0.0
159,Elliot Lake,CA,2019-11-09 23:31:55,46.37,-82.65,35.6,93,90,12.75,light rain,0.0,0.0
160,Shenzhen,CN,2019-11-09 23:28:08,22.54,114.05,71.6,77,10,2.24,clear sky,0.0,0.0
161,Dwarka,IN,2019-11-09 23:31:56,28.58,77.04,64.4,59,0,5.82,smoke,0.0,0.0
162,Tabriz,IR,2019-11-09 23:31:57,38.08,46.29,41.0,38,0,4.7,clear sky,0.0,0.0
163,Lazaro Cardenas,MX,2019-11-09 23:31:57,28.39,-105.62,71.01,60,40,6.93,scattered clouds,0.0,0.0
164,Hamilton,CA,2019-11-09 23:29:50,43.26,-79.87,39.99,64,75,14.99,broken clouds,0.0,0.0
165,Abrau-Dyurso,RU,2019-11-09 23:31:57,44.7,37.6,55.4,76,20,8.95,few clouds,0.0,0.0
166,Casablanca,MA,2019-11-09 23:31:57,33.6,-7.62,60.01,81,39,4.7,scattered clouds,0.0,0.0
167,Liuzhou,CN,2019-11-09 23:31:58,24.32,109.41,60.82,67,38,3.96,scattered clouds,0.0,0.0
168,Saint-Joseph,FR,2019-11-09 23:31:58,43.56,6.97,50.0,87,9,4.7,clear sky,0.0,0.0
169,San Quintin,PH,2019-11-09 23:31:58,17.54,120.52,76.93,83,77,3.76,broken clouds,0.0,0.0
170,Lagoa,PT,2019-11-09 23:31:58,37.14,-8.45,60.8,77,75,9.17,broken clouds,0.0,0.0
171,Bagan,RU,2019-11-09 23:31:58,54.1,77.67,18.93,69,94,10.56,overcast clouds,0.0,0.0
172,Mar Del Plata,AR,2019-11-09 23:31:59,-46.43,-67.52,47.95,66,23,15.82,few clouds,0.0,0.0
173,Agutaya,PH,2019-11-09 23:31:59,11.15,120.94,82.4,73,54,7.34,moderate rain,3.13,0.0
174,Nisia Floresta,BR,2019-11-09 23:31:59,-6.09,-35.21,78.8,78,20,8.05,few clouds,0.0,0.0
175,Eureka,US,2019-11-09 23:31:59,40.8,-124.16,60.01,81,1,9.17,clear sky,0.0,0.0
176,Caxito,BR,2019-11-09 23:31:59,-22.65,-42.51,68.34,98,100,2.59,light rain,2.56,0.0
177,Vila Franca Do Campo,PT,2019-11-09 23:32:00,37.72,-25.43,60.8,82,20,5.82,few clouds,0.0,0.0
178,Blagoyevo,RU,2019-11-09 23:32:00,63.37,47.92,17.44,93,98,5.75,light snow,0.0,0.19
179,Tabou,CI,2019-11-09 23:32:00,4.42,-7.36,76.59,89,12,2.62,few clouds,0.0,0.0
180,Atambua,ID,2019-11-09 23:32:00,-9.11,124.89,82.87,62,86,2.86,overcast clouds,0.0,0.0
181,Babu,CN,2019-11-09 23:32:01,23.23,104.89,60.6,87,100,1.19,overcast clouds,0.0,0.0
182,Hay River,CA,2019-11-09 23:32:01,60.82,-115.79,1.4,70,75,9.17,broken clouds,0.0,0.0
183,Acari,BR,2019-11-09 23:32:01,-6.44,-36.64,70.79,81,90,28.7,overcast clouds,0.0,0.0
184,Houma,CN,2019-11-09 23:32:01,35.63,111.36,43.93,56,0,5.46,clear sky,0.0,0.0
185,Los Llanos De Aridane,ES,2019-11-09 23:32:01,28.66,-17.92,69.8,56,90,16.11,overcast clouds,0.0,0.0
186,Coquimbo,CL,2019-11-09 23:32:02,-29.95,-71.34,59.0,77,58,9.17,broken clouds,0.0,0.0
187,Sharjah,AE,2019-11-09 23:32:02,25.36,55.39,78.8,61,64,16.11,light rain,0.0,0.0
188,Marovoay,MG,2019-11-09 23:32:02,-16.11,46.64,82.4,83,40,9.17,scattered clouds,0.0,0.0
189,Tarauaca,BR,2019-11-09 23:32:02,-8.16,-70.77,82.54,63,93,0.74,overcast clouds,0.0,0.0
190,Gat,SN,2019-11-09 23:32:03,14.69,-16.54,75.2,73,58,17.22,broken clouds,0.0,0.0
191,San Andres,PH,2019-11-09 23:32:03,13.32,122.68,79.63,83,25,3.98,scattered clouds,0.0,0.0
192,Cabo San Lucas,MX,2019-11-09 23:28:53,22.89,-109.91,87.8,51,75,5.82,broken clouds,0.0,0.0
193,Jiwani,PK,2019-11-09 23:32:03,25.05,61.74,76.86,48,36,8.88,scattered clouds,0.0,0.0
194,Coihaique,CL,2019-11-09 23:32:03,-45.58,-72.07,62.6,48,90,6.93,overcast clouds,0.0,0.0
195,Acapulco,MX,2019-11-09 23:32:04,16.86,-99.88,86.0,74,5,8.05,clear sky,0.0,0.0
196,Sistranda,NO,2019-11-09 23:32:04,63.73,8.83,25.0,79,20,8.05,few clouds,0.0,0.0
197,Triggiano,IT,2019-11-09 23:32:04,41.06,16.92,53.01,93,20,4.7,light rain,0.0,0.0
198,Tura,RU,2019-11-09 23:32:04,64.27,100.22,-10.43,98,100,3.62,light snow,0.0,0.13
199,Khash,IR,2019-11-09 23:32:04,28.22,61.21,47.64,81,97,12.01,light rain,2.0,0.0
200,Ascona,CH,2019-11-09 23:32:05,46.16,8.77,46.0,80,20,5.82,few clouds,0.0,0.0
201,Kontagora,NG,2019-11-09 23:32:05,10.4,5.47,77.14,40,0,1.86,clear sky,0.0,0.0
202,Kohlu,PK,2019-11-09 23:31:02,29.9,69.25,50.23,46,0,2.53,clear sky,0.0,0.0
203,Sinnamary,GF,2019-11-09 23:32:05,5.38,-52.96,81.82,84,34,11.61,scattered clouds,0.0,0.0
204,Morondava,MG,2019-11-09 23:32:05,-20.3,44.28,76.84,45,0,2.26,clear sky,0.0,0.0
205,Meadow Lake,CA,2019-11-09 23:30:08,54.13,-108.44,10.4,66,40,8.05,scattered clouds,0.0,0.0
206,Oistins,BB,2019-11-09 23:32:06,13.07,-59.53,78.8,88,40,23.04,shower rain,0.0,0.0
207,Gravelbourg,CA,2019-11-09 23:32:06,49.88,-106.56,19.15,81,100,14.92,light snow,0.0,0.12
208,Pavilosta,LV,2019-11-09 23:32:07,56.89,21.19,48.2,100,100,6.93,light rain,1.37,0.0
209,Kisoro,UG,2019-11-09 23:32:07,-1.28,29.69,52.09,93,84,3.51,broken clouds,0.0,0.0
210,Goderich,CA,2019-11-09 23:32:07,43.74,-81.71,37.99,74,89,10.8,overcast clouds,0.0,0.0
211,Samur,AZ,2019-11-09 23:32:07,41.64,48.43,48.52,74,21,1.74,few clouds,0.0,0.0
212,Kishi,NG,2019-11-09 23:32:07,9.08,3.85,77.18,55,0,1.7,clear sky,0.0,0.0
213,Praya,ID,2019-11-09 23:32:08,-8.71,116.27,80.6,78,20,2.24,few clouds,0.0,0.0
214,Sunam,IN,2019-11-09 23:32:08,30.13,75.81,61.18,43,0,5.44,clear sky,0.0,0.0
215,San Francisco,CO,2019-11-09 23:30:34,1.17,-76.88,66.2,88,75,4.7,shower rain,0.0,0.0
216,Portland,US,2019-11-09 23:27:30,43.66,-70.25,36.0,47,20,4.7,few clouds,0.0,0.0
217,Ginir,ET,2019-11-09 23:32:08,7.14,40.71,57.0,90,88,4.25,overcast clouds,0.0,0.0
218,Sedro-Woolley,US,2019-11-09 23:32:08,48.5,-122.23,52.0,93,90,2.77,overcast clouds,0.0,0.0
219,North Bend,US,2019-11-09 23:32:09,43.41,-124.22,55.0,81,1,5.82,clear sky,0.0,0.0
220,El Prat De Llobregat,ES,2019-11-09 23:32:09,41.32,2.1,57.99,58,20,5.82,few clouds,0.0,0.0
221,Verkh-Usugli,RU,2019-11-09 23:32:09,52.7,115.17,26.56,85,100,4.88,light snow,0.0,0.25
222,Guerrero Negro,MX,2019-11-09 23:32:10,27.97,-114.04,74.71,51,100,12.1,overcast clouds,0.0,0.0
223,Evans,US,2019-11-09 23:32:10,40.38,-104.69,73.4,13,1,4.7,clear sky,0.0,0.0
224,Tuktoyaktuk,CA,2019-11-09 23:32:10,69.44,-133.03,5.0,71,20,19.46,few clouds,0.0,0.0
225,Ntungamo,UG,2019-11-09 23:32:10,-0.87,30.27,60.73,91,50,0.98,scattered clouds,0.0,0.0
226,Tanete,ID,2019-11-09 23:32:10,-3.94,119.78,82.33,69,100,3.0,light rain,0.31,0.0
227,Port Hawkesbury,CA,2019-11-09 23:32:11,45.62,-61.36,34.0,68,1,10.29,clear sky,0.0,0.0
228,Selcuk,TR,2019-11-09 23:32:11,37.95,27.37,57.99,93,64,2.73,broken clouds,0.0,0.0
229,Road Town,VG,2019-11-09 23:29:52,18.42,-64.62,84.2,74,40,10.29,scattered clouds,0.0,0.0
230,Bredasdorp,ZA,2019-11-09 23:32:11,-34.53,20.04,64.99,87,100,11.41,light rain,0.13,0.0
231,Saint-Michel-Des-Saints,CA,2019-11-09 23:32:11,46.68,-73.92,27.0,9,100,1.01,light snow,0.0,0.56
232,Ilulissat,GL,2019-11-09 23:32:12,69.22,-51.1,35.6,31,100,23.04,overcast clouds,0.0,0.0
233,Naze,NG,2019-11-09 23:32:12,5.43,7.07,75.2,94,75,3.36,thunderstorm,0.0,0.0
234,Henties Bay,NA,2019-11-09 23:32:13,-22.12,14.28,57.99,90,0,2.13,clear sky,0.0,0.0
235,Fatehpur,PK,2019-11-09 23:32:13,31.18,71.21,65.75,31,0,1.9,clear sky,0.0,0.0
236,Iqaluit,CA,2019-11-09 23:27:58,63.75,-68.52,5.0,77,75,16.11,broken clouds,0.0,0.0
237,Velikodvorskiy,RU,2019-11-09 23:32:13,55.25,40.67,35.8,84,69,8.66,broken clouds,0.0,0.0
238,Igarka,RU,2019-11-09 23:32:13,67.47,86.57,-14.63,96,98,10.63,overcast clouds,0.0,0.0
239,Lixourion,GR,2019-11-09 23:32:14,38.2,20.43,64.0,79,100,26.28,light rain,2.38,0.0
240,Teykovo,RU,2019-11-09 23:32:14,56.86,40.54,33.31,91,100,10.04,light rain,0.19,0.0
241,Cayenne,GF,2019-11-09 23:32:14,4.94,-52.33,78.8,88,22,3.36,few clouds,0.0,0.0
242,Strezhevoy,RU,2019-11-09 23:32:14,60.73,77.6,-0.41,84,100,4.47,overcast clouds,0.0,0.0
243,Quang Ngai,VN,2019-11-09 23:32:14,15.12,108.8,72.72,89,100,29.24,moderate rain,5.94,0.0
244,Namibe,AO,2019-11-09 23:32:15,-15.19,12.15,76.69,76,0,7.54,clear sky,0.0,0.0
245,Syumsi,RU,2019-11-09 23:32:15,57.11,51.61,25.56,73,100,3.53,overcast clouds,0.0,0.0
246,Tutoia,BR,2019-11-09 23:32:15,-2.76,-42.27,74.66,93,36,4.65,scattered clouds,0.0,0.0
247,Capaci,IT,2019-11-09 23:32:15,38.17,13.24,57.2,71,75,14.99,broken clouds,0.0,0.0
248,Cruzeiro Do Sul,BR,2019-11-09 23:32:16,-7.63,-72.67,85.28,53,100,2.51,overcast clouds,0.0,0.0
249,Manuk Mangkaw,PH,2019-11-09 23:32:16,4.8,119.85,82.94,70,83,0.31,broken clouds,0.0,0.0
250,Dobromir,BG,2019-11-09 23:32:16,42.95,27.29,61.0,87,75,3.36,broken clouds,0.0,0.0
251,Kavaratti,IN,2019-11-09 23:32:16,10.57,72.64,81.14,71,56,7.11,broken clouds,0.0,0.0
252,Saskylakh,RU,2019-11-09 23:32:16,71.97,114.09,0.43,97,100,5.48,light snow,0.0,0.62
253,Lac Du Bonnet,CA,2019-11-09 23:32:17,50.25,-96.06,23.0,82,100,10.0,light snow,0.0,0.62
254,Urucara,BR,2019-11-09 23:32:17,-2.54,-57.76,76.84,87,78,1.21,broken clouds,0.0,0.0
255,Karratha,AU,2019-11-09 23:30:56,-20.74,116.85,82.09,55,53,8.52,broken clouds,0.0,0.0
256,Mabaruma,GY,2019-11-09 23:32:18,8.2,-59.78,74.91,97,2,3.13,clear sky,0.0,0.0
257,Atar,MR,2019-11-09 23:32:19,20.52,-13.05,74.34,21,85,9.48,overcast clouds,0.0,0.0
258,Talnakh,RU,2019-11-09 23:32:19,69.49,88.39,-18.41,75,98,8.95,overcast clouds,0.0,0.0
259,Tazovskiy,RU,2019-11-09 23:32:19,67.47,78.7,-9.15,97,18,9.15,few clouds,0.0,0.0
260,Paamiut,GL,2019-11-09 23:32:20,61.99,-49.67,38.37,65,100,20.51,light snow,0.0,1.0
261,Sorsk,RU,2019-11-09 23:32:20,54.0,90.25,11.64,91,89,2.64,light snow,0.0,0.13
262,Omboue,GA,2019-11-09 23:32:20,-1.57,9.26,75.58,96,100,1.63,overcast clouds,0.0,0.0
263,Soe,EE,2019-11-09 23:32:20,57.91,26.05,46.99,100,100,5.82,overcast clouds,0.0,0.0
264,Fort-Shevchenko,KZ,2019-11-09 23:32:20,44.51,50.26,51.33,39,36,13.49,scattered clouds,0.0,0.0
265,Melita,CA,2019-11-09 23:32:21,49.27,-100.98,25.0,86,100,11.99,light snow,0.0,0.13
266,Pinyug,RU,2019-11-09 23:32:21,60.25,47.79,26.37,91,100,8.23,overcast clouds,0.0,0.0
267,Norman Wells,CA,2019-11-09 23:32:21,65.28,-126.83,3.2,84,20,3.36,few clouds,0.0,0.0
268,Alenquer,BR,2019-11-09 23:32:22,-1.95,-54.74,78.8,94,82,2.24,light rain,0.5,0.0
269,Nuevo Progreso,US,2019-11-09 23:32:22,26.05,-97.95,70.0,60,40,3.36,scattered clouds,0.0,0.0
270,Catole Do Rocha,BR,2019-11-09 23:32:22,-6.34,-37.75,79.77,58,61,12.06,broken clouds,0.0,0.0
271,Santa Rosa,AR,2019-11-09 23:28:14,-36.62,-64.29,67.69,43,0,9.22,clear sky,0.0,0.0
272,Saint-Francois,FR,2019-11-09 23:32:22,46.42,3.91,41.0,86,89,6.93,light rain,0.0,0.0
273,Bima,ID,2019-11-09 23:32:24,-8.45,118.73,82.53,65,22,3.13,few clouds,0.0,0.0
274,Rawson,AR,2019-11-09 23:32:24,-43.3,-65.11,50.7,80,15,20.8,few clouds,0.0,0.0
275,Kruisfontein,ZA,2019-11-09 23:32:24,-34.0,24.73,60.71,82,94,13.35,overcast clouds,0.0,0.0
276,Boa Vista,BR,2019-11-09 23:30:55,2.82,-60.67,87.8,55,75,5.82,broken clouds,0.0,0.0
277,Fort Nelson,CA,2019-11-09 23:32:24,58.81,-122.69,8.6,65,90,5.82,light snow,0.0,0.0
278,Krasnoborsk,RU,2019-11-09 23:32:24,61.56,45.93,28.62,97,100,5.46,snow,0.0,1.81
279,Bocas Del Toro,PA,2019-11-09 23:32:25,9.33,-82.25,68.0,81,99,1.01,light rain,0.88,0.0
280,Camacha,PT,2019-11-09 23:32:25,33.08,-16.33,66.2,68,40,12.75,scattered clouds,0.0,0.0
281,Pemberton,AU,2019-11-09 23:32:25,-34.44,116.03,68.0,85,35,7.27,light rain,0.19,0.0
282,Romitan,UZ,2019-11-09 23:32:25,39.93,64.38,37.4,74,0,6.93,clear sky,0.0,0.0
283,Pitimbu,BR,2019-11-09 23:32:26,-7.47,-34.81,77.0,83,20,8.05,few clouds,0.0,0.0
284,La Rioja,AR,2019-11-09 23:32:26,-29.41,-66.86,72.0,60,82,8.14,broken clouds,0.0,0.0
285,Leh,IN,2019-11-09 23:32:26,34.16,77.58,14.58,30,0,1.86,clear sky,0.0,0.0
286,Carlsbad,CZ,2019-11-09 23:32:26,50.23,12.87,35.01,92,20,2.24,mist,0.0,0.0
287,Genhe,CN,2019-11-09 23:32:26,50.78,121.52,22.41,88,100,1.66,overcast clouds,0.0,0.0
288,Helena,US,2019-11-09 23:32:27,46.59,-112.04,60.8,26,75,9.17,broken clouds,0.0,0.0
289,Beloha,MG,2019-11-09 23:32:27,-25.17,45.06,70.32,83,81,9.33,broken clouds,0.0,0.0
290,Sandpoint,US,2019-11-09 23:32:27,48.28,-116.55,48.2,57,75,3.42,broken clouds,0.0,0.0
291,Ixtapa,MX,2019-11-09 23:32:27,20.71,-105.21,86.0,84,40,8.05,scattered clouds,0.0,0.0
292,Fengrun,CN,2019-11-09 23:32:27,39.83,118.12,50.29,85,100,17.22,moderate rain,5.63,0.0
293,Ferry Pass,US,2019-11-09 23:32:28,30.51,-87.21,62.01,67,1,5.73,clear sky,0.0,0.0
294,Omaruru,NA,2019-11-09 23:32:28,-21.42,15.95,68.09,28,43,4.47,scattered clouds,0.0,0.0
295,San Policarpo,PH,2019-11-09 23:32:28,12.18,125.51,81.48,73,1,5.17,clear sky,0.0,0.0
296,Mindelo,PT,2019-11-09 23:32:28,41.31,-8.72,59.0,87,40,10.29,scattered clouds,0.0,0.0
297,Codrington,AU,2019-11-09 23:32:28,-28.95,153.24,71.6,34,90,8.05,overcast clouds,0.0,0.0
298,Ranong,TH,2019-11-09 23:32:29,9.96,98.62,77.0,100,75,9.48,mist,0.0,0.0
299,Mumford,GH,2019-11-09 23:32:29,5.26,-0.76,75.4,93,52,2.71,light rain,0.25,0.0
300,Gamba,CN,2019-11-09 23:32:29,28.28,88.52,23.4,62,33,1.05,scattered clouds,0.0,0.0
301,Klaksvik,FO,2019-11-09 23:32:29,62.23,-6.59,35.6,61,100,2.24,light rain,0.13,0.0
302,Jumla,NP,2019-11-09 23:32:29,29.28,82.18,35.28,71,0,5.59,clear sky,0.0,0.0
303,Polunochnoye,RU,2019-11-09 23:32:29,60.87,60.43,4.77,85,17,2.19,few clouds,0.0,0.0
304,La Ligua,CL,2019-11-09 23:32:30,-32.45,-71.23,57.2,93,40,10.29,scattered clouds,0.0,0.0
305,Chapais,CA,2019-11-09 23:32:30,49.78,-74.86,17.6,92,90,6.93,light snow,0.0,0.0
306,Correntina,BR,2019-11-09 23:32:30,-13.34,-44.63,77.23,35,31,3.76,scattered clouds,0.0,0.0
307,Bonthe,SL,2019-11-09 23:32:30,7.53,-12.5,79.74,81,11,4.5,few clouds,0.0,0.0
308,Flagstaff,US,2019-11-09 23:30:21,35.2,-111.65,75.99,27,1,8.05,clear sky,0.0,0.0
309,Lerwick,GB,2019-11-09 23:32:31,60.15,-1.15,42.8,56,5,20.8,clear sky,0.0,0.0
310,Whitehorse,CA,2019-11-09 23:32:31,60.72,-135.06,12.2,66,20,4.7,few clouds,0.0,0.0
311,Buchanan,LR,2019-11-09 23:32:31,5.88,-10.05,78.8,94,75,1.05,broken clouds,0.0,0.0
312,Kohima,IN,2019-11-09 23:32:31,25.66,94.1,55.6,99,97,2.8,light rain,0.56,0.0
313,Progreso,UY,2019-11-09 23:32:31,-34.68,-56.22,64.99,68,23,13.87,few clouds,0.0,0.0
314,Walvis Bay,NA,2019-11-09 23:32:32,-22.95,14.51,57.99,87,0,6.93,clear sky,0.0,0.0
315,Sao Filipe,CV,2019-11-09 23:32:32,14.9,-24.5,74.95,79,94,15.43,overcast clouds,0.0,0.0
316,Sena Madureira,BR,2019-11-09 23:32:32,-9.07,-68.66,76.39,87,100,2.93,light rain,1.88,0.0
317,Shingu,JP,2019-11-09 23:32:32,33.72,135.99,55.4,66,20,3.36,few clouds,0.0,0.0
318,Bestobe,KZ,2019-11-09 23:32:32,52.5,73.1,20.26,78,100,14.81,overcast clouds,0.0,0.0
319,Konza,KE,2019-11-09 23:32:33,-1.74,37.13,64.4,88,75,6.93,broken clouds,0.0,0.0
320,Nanzhou,CN,2019-11-09 23:32:33,29.37,112.41,61.29,63,90,5.41,overcast clouds,0.0,0.0
321,Qarayeri,AZ,2019-11-09 23:32:33,40.79,46.31,46.4,65,40,4.7,scattered clouds,0.0,0.0
322,Saint Anthony,US,2019-11-09 23:27:52,43.97,-111.68,54.0,30,1,3.36,clear sky,0.0,0.0
323,San Juan,AR,2019-11-09 23:32:33,-31.54,-68.53,82.13,32,1,6.98,clear sky,0.0,0.0
324,Kamenka,MD,2019-11-09 23:32:34,48.03,28.7,55.99,90,47,7.0,scattered clouds,0.0,0.0
325,Sinop,TR,2019-11-09 23:32:34,42.03,35.15,61.79,55,0,7.87,clear sky,0.0,0.0
326,Raton,US,2019-11-09 23:29:22,36.9,-104.44,73.4,11,1,16.11,clear sky,0.0,0.0
327,Chicama,PE,2019-11-09 23:32:34,-7.84,-79.15,64.4,82,40,10.29,haze,0.0,0.0
328,Bratsk,RU,2019-11-09 23:32:34,56.15,101.63,12.2,78,75,13.42,shower snow,0.0,0.0
329,Alice Springs,AU,2019-11-09 23:32:35,-23.7,133.88,69.8,15,0,11.41,clear sky,0.0,0.0
330,Craig,US,2019-11-09 23:32:35,40.52,-107.55,62.6,19,1,3.36,clear sky,0.0,0.0
331,Stantsionno-Oyashinskiy,RU,2019-11-09 23:32:35,55.47,83.82,13.78,71,0,8.1,clear sky,0.0,0.0
332,Huarmey,PE,2019-11-09 23:32:35,-10.07,-78.15,63.61,79,83,2.37,broken clouds,0.0,0.0
333,Gejiu,CN,2019-11-09 23:32:35,23.36,103.16,54.03,94,100,3.02,overcast clouds,0.0,0.0
334,Sechura,PE,2019-11-09 23:32:36,-5.56,-80.82,65.77,85,20,11.74,few clouds,0.0,0.0
335,Tuy Hoa,VN,2019-11-09 23:32:36,13.08,109.3,73.56,85,100,26.57,moderate rain,3.19,0.0
336,Kalangala,UG,2019-11-09 23:32:36,-0.32,32.29,71.6,88,20,4.7,few clouds,0.0,0.0
337,Concordia,AR,2019-11-09 23:32:36,-31.4,-58.02,66.34,91,50,6.71,scattered clouds,0.0,0.0
338,Silver City,US,2019-11-09 23:32:37,32.77,-108.28,62.6,42,1,6.93,clear sky,0.0,0.0
339,Bezhta,RU,2019-11-09 23:32:37,42.13,46.13,42.39,32,0,6.38,clear sky,0.0,0.0
340,Strelka,RU,2019-11-09 23:32:37,58.08,93.03,-3.09,95,100,7.27,overcast clouds,0.0,0.0
341,Katobu,ID,2019-11-09 23:32:37,-4.94,122.53,86.95,58,53,4.09,broken clouds,0.0,0.0
342,Erenhot,CN,2019-11-09 23:32:37,43.65,111.97,35.22,72,15,14.79,few clouds,0.0,0.0
343,Lumphat,KH,2019-11-09 23:32:38,13.5,106.97,67.89,88,99,0.76,overcast clouds,0.0,0.0
344,Hami,CN,2019-11-09 23:32:38,42.84,93.51,30.7,35,0,0.4,clear sky,0.0,0.0
345,Padang,ID,2019-11-09 23:32:38,-0.92,100.36,69.49,90,73,1.1,broken clouds,0.0,0.0
346,Teguldet,RU,2019-11-09 23:32:38,57.31,88.17,2.95,87,100,6.55,overcast clouds,0.0,0.0
347,Lastoursville,GA,2019-11-09 23:32:38,-0.81,12.73,71.56,98,100,1.41,light rain,1.69,0.0
348,Gigmoto,PH,2019-11-09 23:32:39,13.78,124.39,81.55,74,67,2.48,broken clouds,0.0,0.0
349,Luwuk,ID,2019-11-09 23:32:39,-0.95,122.79,80.89,73,100,8.1,light rain,0.31,0.0
350,Khani,GE,2019-11-09 23:32:39,41.96,42.96,46.4,75,0,4.7,clear sky,0.0,0.0
351,Tomatlan,MX,2019-11-09 23:32:40,19.93,-105.25,79.88,83,29,2.82,scattered clouds,0.0,0.0
352,Fergus Falls,US,2019-11-09 23:30:06,46.28,-96.08,32.0,100,90,6.93,light snow,0.0,0.0
353,Zhigansk,RU,2019-11-09 23:32:40,66.77,123.37,5.67,92,100,16.06,light snow,0.0,0.5
354,Kulhudhuffushi,MV,2019-11-09 23:32:40,6.62,73.07,81.75,67,0,4.36,clear sky,0.0,0.0
355,Linjiang,CN,2019-11-09 23:32:41,41.81,126.91,33.39,62,100,4.25,overcast clouds,0.0,0.0
356,Nevel,RU,2019-11-09 23:32:41,56.02,29.92,49.6,95,100,8.37,overcast clouds,0.0,0.0
357,Sao Geraldo Do Araguaia,BR,2019-11-09 23:32:41,-6.4,-48.55,75.4,85,77,2.66,light rain,0.88,0.0
358,Kangaatsiaq,GL,2019-11-09 23:32:41,68.31,-53.46,35.08,52,100,18.75,overcast clouds,0.0,0.0
359,Denpasar,ID,2019-11-09 23:27:54,-8.65,115.22,80.6,83,20,2.24,few clouds,0.0,0.0
360,Vredendal,ZA,2019-11-09 23:32:42,-31.68,18.49,60.39,84,76,2.06,broken clouds,0.0,0.0
361,Asheville,US,2019-11-09 23:30:36,35.6,-82.55,43.0,48,1,2.17,clear sky,0.0,0.0
362,Danville,US,2019-11-09 23:30:46,37.82,-122.0,79.0,27,1,2.26,clear sky,0.0,0.0
363,Port Elizabeth,US,2019-11-09 23:32:42,39.31,-74.98,39.2,63,1,3.31,clear sky,0.0,0.0
364,Xining,CN,2019-11-09 23:32:42,36.62,101.77,27.77,28,0,4.54,clear sky,0.0,0.0
365,Manggar,ID,2019-11-09 23:32:42,-2.88,108.27,83.57,68,0,5.5,clear sky,0.0,0.0
366,Manado,ID,2019-11-09 23:32:43,1.49,124.85,75.2,94,40,2.26,scattered clouds,0.0,0.0
367,Sibu,MY,2019-11-09 23:30:21,2.29,111.83,73.4,94,75,2.24,broken clouds,0.0,0.0
368,Nampula,MZ,2019-11-09 23:32:43,-15.12,39.26,72.27,88,41,1.86,scattered clouds,0.0,0.0
369,Toamasina,MG,2019-11-09 23:32:43,-18.17,49.38,75.2,94,75,13.47,shower rain,0.0,0.0
370,Roald,NO,2019-11-09 23:32:43,62.58,6.12,28.4,74,0,14.99,clear sky,0.0,0.0
371,Chifeng,CN,2019-11-09 23:32:43,42.27,118.96,42.12,75,100,6.67,light rain,0.44,0.0
372,Rio Grande,BR,2019-11-09 23:32:44,-32.03,-52.1,70.0,90,64,4.0,broken clouds,0.0,0.0
373,Candido Mendes,BR,2019-11-09 23:32:44,-1.45,-45.72,77.59,84,100,3.76,overcast clouds,0.0,0.0
374,Siemiatycze,PL,2019-11-09 23:32:44,52.43,22.86,52.0,83,100,1.01,light rain,0.75,0.0
375,Choya,RU,2019-11-09 23:32:45,52.01,86.55,22.46,95,100,3.02,light snow,0.0,0.44
376,Northam,AU,2019-11-09 23:32:45,-31.65,116.67,68.0,72,75,12.75,broken clouds,0.0,0.0
377,Stepantsevo,RU,2019-11-09 23:32:45,56.13,41.7,31.98,89,80,8.61,broken clouds,0.0,0.0
378,Novoagansk,RU,2019-11-09 23:32:45,61.94,76.66,4.93,95,100,8.7,light snow,0.0,0.13
379,Puerto Escondido,MX,2019-11-09 23:32:45,15.86,-97.07,84.2,74,75,6.93,broken clouds,0.0,0.0
380,San Ignacio,PE,2019-11-09 23:32:45,-5.15,-79.0,63.45,90,37,1.32,light rain,0.69,0.0
381,Tirano,IT,2019-11-09 23:32:46,46.22,10.17,43.0,92,90,4.52,light snow,0.0,0.0
382,Mwense,ZM,2019-11-09 23:32:46,-10.39,28.7,73.49,60,83,0.78,broken clouds,0.0,0.0
383,Alta Floresta,BR,2019-11-09 23:32:46,-9.87,-56.08,71.29,98,94,5.1,light rain,2.94,0.0
384,Manzhouli,CN,2019-11-09 23:32:46,49.6,117.43,29.89,92,80,14.41,broken clouds,0.0,0.0
385,Arica,CL,2019-11-09 23:32:46,-18.48,-70.32,66.2,72,90,6.93,overcast clouds,0.0,0.0
386,Marana,US,2019-11-09 23:32:47,32.44,-111.22,82.4,24,1,2.35,clear sky,0.0,0.0
387,Riachao Do Jacuipe,BR,2019-11-09 23:32:47,-11.81,-39.39,74.62,73,15,11.32,few clouds,0.0,0.0
388,Maceio,BR,2019-11-09 23:30:27,-9.67,-35.74,75.2,83,17,8.05,light rain,0.13,0.0
389,Taoudenni,ML,2019-11-09 23:32:47,22.68,-3.98,68.74,21,11,9.15,few clouds,0.0,0.0
390,Nzerekore,GN,2019-11-09 23:32:47,7.76,-8.82,71.74,83,99,1.99,overcast clouds,0.0,0.0
391,Nuuk,GL,2019-11-09 23:32:48,64.17,-51.74,38.68,49,100,21.0,overcast clouds,0.0,0.0
392,Khuzdar,PK,2019-11-09 23:32:48,27.8,66.62,50.29,28,0,1.83,clear sky,0.0,0.0
393,Hobart,AU,2019-11-09 23:32:48,-42.88,147.33,62.01,41,40,19.46,scattered clouds,0.0,0.0
394,Kargasok,RU,2019-11-09 23:32:48,59.06,80.87,8.62,88,84,7.94,broken clouds,0.0,0.0
395,Axim,GH,2019-11-09 23:32:48,4.87,-2.24,77.2,87,15,2.95,few clouds,0.0,0.0
396,Dakar,SN,2019-11-09 23:28:31,14.69,-17.45,77.0,83,57,9.17,broken clouds,0.0,0.0
397,Busayra,JO,2019-11-09 23:32:49,30.74,35.61,64.13,33,2,23.0,clear sky,0.0,0.0
398,Aleysk,RU,2019-11-09 23:32:49,52.5,82.77,24.96,62,100,11.88,overcast clouds,0.0,0.0
399,Shache,CN,2019-11-09 23:32:49,38.42,77.24,36.0,69,0,5.12,clear sky,0.0,0.0
400,Ucluelet,CA,2019-11-09 23:31:10,48.94,-125.55,53.01,100,90,5.82,light rain,0.0,0.0
401,Lewisporte,CA,2019-11-09 23:32:50,49.25,-55.06,30.2,68,40,19.46,scattered clouds,0.0,0.0
402,Dabat,ET,2019-11-09 23:32:50,12.98,37.77,56.62,76,9,5.26,clear sky,0.0,0.0
403,Mega,ET,2019-11-09 23:32:50,4.06,38.32,65.14,91,76,9.95,moderate rain,6.0,0.0
404,Itoman,JP,2019-11-09 23:32:50,26.12,127.67,69.8,60,75,3.36,broken clouds,0.0,0.0
405,Lodja,CD,2019-11-09 23:32:51,-3.52,23.6,70.07,91,100,0.67,overcast clouds,0.0,0.0
406,Yumen,CN,2019-11-09 23:32:51,40.29,97.04,30.15,38,0,10.65,clear sky,0.0,0.0
407,Birakan,RU,2019-11-09 23:32:51,49.02,131.7,20.53,69,0,1.3,clear sky,0.0,0.0
408,Surgut,RU,2019-11-09 23:32:51,61.25,73.4,5.0,92,40,6.71,light snow,0.0,0.0
409,Frontera,MX,2019-11-09 23:32:51,18.53,-92.64,75.2,100,75,4.63,broken clouds,0.0,0.0
410,Kodarma,IN,2019-11-09 23:32:52,24.47,85.59,68.41,91,100,2.95,overcast clouds,0.0,0.0
411,Edson,CA,2019-11-09 23:30:13,53.59,-116.44,15.8,85,90,5.82,light snow,0.0,0.0
412,Lanxi,CN,2019-11-09 23:32:52,29.21,119.46,52.63,61,37,1.57,scattered clouds,0.0,0.0
413,Yorosso,ML,2019-11-09 23:32:52,12.35,-4.78,83.46,48,43,6.55,scattered clouds,0.0,0.0
414,Ancud,CL,2019-11-09 23:32:52,-41.87,-73.83,53.6,87,92,5.82,light rain,0.0,0.0
415,Harnosand,SE,2019-11-09 23:32:53,62.63,17.94,23.0,73,90,13.87,light snow,0.0,0.0
416,Brigantine,US,2019-11-09 23:32:53,39.41,-74.36,41.0,64,1,4.7,clear sky,0.0,0.0
417,Sapa,PH,2019-11-09 23:32:53,14.32,120.76,81.0,88,75,3.36,broken clouds,0.0,0.0
418,Red Bank,US,2019-11-09 23:32:54,35.12,-85.29,50.0,75,1,3.2,clear sky,0.0,0.0
419,Todos Santos,MX,2019-11-09 23:32:54,23.45,-110.23,87.8,25,75,11.41,broken clouds,0.0,0.0
420,Hrodna,BY,2019-11-09 23:32:54,53.68,23.83,51.53,96,95,8.97,light rain,0.88,0.0
421,Geraldton,CA,2019-11-09 23:32:55,49.72,-86.95,19.4,85,90,4.7,light snow,0.0,0.0
422,Fortuna,US,2019-11-09 23:32:55,40.6,-124.16,60.01,87,75,10.29,broken clouds,0.0,0.0
423,Meulaboh,ID,2019-11-09 23:32:55,4.14,96.13,81.0,77,78,6.24,light rain,0.25,0.0
424,Soyo,AO,2019-11-09 23:32:55,-6.13,12.37,79.11,89,67,3.38,light rain,1.19,0.0
425,Suzaka,JP,2019-11-09 23:32:55,36.61,138.35,53.01,95,23,2.89,few clouds,0.0,0.0
426,Malbug,PH,2019-11-09 23:32:56,9.73,123.34,82.11,70,2,6.35,clear sky,0.0,0.0
427,Neepawa,CA,2019-11-09 23:32:56,50.23,-99.46,23.0,67,90,9.17,light snow,0.0,0.0
428,Huambo,AO,2019-11-09 23:32:56,-12.78,15.73,63.28,89,100,1.95,light rain,0.25,0.0
429,Maniitsoq,GL,2019-11-09 23:32:56,65.42,-52.9,35.38,47,57,25.52,broken clouds,0.0,0.0
430,Grand-Santi,GF,2019-11-09 23:32:56,4.27,-54.38,73.89,96,87,2.93,light rain,1.69,0.0
431,Killybegs,IE,2019-11-09 23:32:57,54.63,-8.45,39.99,90,22,10.07,few clouds,0.0,0.0
432,La Palma,CO,2019-11-09 23:32:57,5.36,-74.39,71.47,94,100,2.15,overcast clouds,0.0,0.0
433,Kingseat,GB,2019-11-09 23:32:57,56.1,-3.41,39.2,80,75,6.93,broken clouds,0.0,0.0
434,Chak,PK,2019-11-09 23:32:58,27.86,68.83,65.59,33,0,3.51,clear sky,0.0,0.0
435,Eslamshahr,IR,2019-11-09 23:32:58,35.55,51.23,53.6,56,0,9.17,clear sky,0.0,0.0
436,Tuburan,PH,2019-11-09 23:32:58,10.73,123.82,82.4,69,75,11.41,broken clouds,0.0,0.0
437,Gioia Del Colle,IT,2019-11-09 23:32:58,40.8,16.92,57.99,93,20,4.7,few clouds,0.0,0.0
438,Doba,ET,2019-11-09 23:32:58,9.29,41.09,66.81,50,2,1.3,clear sky,0.0,0.0
439,Muroto,JP,2019-11-09 23:32:58,33.37,134.14,55.4,62,20,8.05,few clouds,0.0,0.0
440,Latung,ID,2019-11-09 23:32:59,-8.45,120.42,81.39,52,2,1.88,clear sky,0.0,0.0
441,Awbari,LY,2019-11-09 23:32:59,26.59,12.77,70.75,30,100,11.16,overcast clouds,0.0,0.0
442,Cururupu,BR,2019-11-09 23:32:59,-1.82,-44.87,73.85,93,100,2.33,overcast clouds,0.0,0.0
443,Galle,GN,2019-11-09 23:32:59,10.08,-12.83,72.5,92,52,2.06,broken clouds,0.0,0.0
444,Aljezur,PT,2019-11-09 23:33:00,37.31,-8.8,57.99,81,60,21.56,broken clouds,0.06,0.0
445,Ketchikan,US,2019-11-09 23:33:00,55.34,-131.65,51.8,93,90,21.92,light rain,0.0,0.0
446,Forecariah,GN,2019-11-09 23:33:00,9.43,-13.09,75.09,93,68,2.84,broken clouds,0.0,0.0
447,Hoquiam,US,2019-11-09 23:33:00,46.98,-123.89,52.0,100,90,5.82,light rain,0.0,0.0
448,Madimba,CM,2019-11-09 23:33:00,4.42,9.93,80.6,83,75,4.7,thunderstorm,0.0,0.0
449,Carupano,VE,2019-11-09 23:33:00,10.67,-63.26,74.43,92,2,3.36,light rain,0.13,0.0
450,Svetlogorsk,RU,2019-11-09 23:33:01,53.14,59.15,6.8,92,0,4.47,fog,0.0,0.0
451,Tawau,MY,2019-11-09 23:33:01,4.26,117.89,77.0,94,75,3.36,broken clouds,0.0,0.0
452,Hisar,IN,2019-11-09 23:33:01,29.16,75.73,66.58,29,0,4.52,clear sky,0.0,0.0
453,Zaozerne,UA,2019-11-09 23:33:01,51.37,23.94,52.45,88,79,3.69,light rain,0.25,0.0
454,Bongandanga,CD,2019-11-09 23:33:02,1.51,21.07,70.16,98,33,0.96,scattered clouds,0.0,0.0
455,Gloversville,US,2019-11-09 23:33:02,43.05,-74.34,35.6,58,75,3.36,broken clouds,0.0,0.0
456,Darlington,US,2019-11-09 23:33:02,34.3,-79.88,45.0,86,1,2.66,clear sky,0.0,0.0
457,Heihe,RU,2019-11-09 23:33:02,50.24,127.51,12.2,100,20,3.27,few clouds,0.0,0.0
458,Tyukhtet,RU,2019-11-09 23:33:02,56.54,89.31,11.37,77,100,7.63,overcast clouds,0.0,0.0
459,Mandera,ET,2019-11-09 23:33:03,3.94,41.86,78.01,23,91,1.99,moderate rain,6.56,0.0
460,Bucerias,MX,2019-11-09 23:33:03,20.76,-105.33,86.0,84,40,8.05,scattered clouds,0.0,0.0
461,Aksu,KZ,2019-11-09 23:33:03,52.04,76.93,21.2,79,100,17.9,overcast clouds,0.0,0.0
462,Saint-Augustin,CA,2019-11-09 23:33:03,45.63,-73.98,36.0,64,90,8.05,overcast clouds,0.0,0.0
463,Ludza,LV,2019-11-09 23:33:03,56.55,27.72,47.97,96,96,8.79,overcast clouds,0.0,0.0
464,Alausi,EC,2019-11-09 23:33:04,-2.2,-78.83,56.89,98,100,2.13,moderate rain,3.5,0.0
465,Verkhnevilyuysk,RU,2019-11-09 23:33:04,63.45,120.31,17.4,96,100,2.62,light snow,0.0,0.25
466,Ambulu,ID,2019-11-09 23:33:04,-8.35,113.61,78.42,81,2,4.79,clear sky,0.0,0.0
467,Banda Aceh,ID,2019-11-09 23:33:04,5.56,95.32,73.62,90,65,2.42,broken clouds,0.0,0.0
468,De Aar,ZA,2019-11-09 23:33:04,-30.65,24.01,63.45,43,93,17.54,overcast clouds,0.0,0.0
469,Kyren,RU,2019-11-09 23:33:04,51.68,102.13,10.47,97,80,4.25,light snow,0.0,0.19
470,Sao Joao Da Barra,BR,2019-11-09 23:28:25,-21.64,-41.05,75.69,89,84,5.99,light rain,0.75,0.0
471,Esmeralda,CL,2019-11-09 23:33:05,-34.33,-70.9,82.4,38,0,8.05,clear sky,0.0,0.0
472,Tuskegee,US,2019-11-09 23:33:05,32.42,-85.69,55.4,87,1,2.15,clear sky,0.0,0.0
473,Birjand,IR,2019-11-09 23:33:05,32.86,59.22,41.0,27,77,6.93,broken clouds,0.0,0.0
474,Sumenep,ID,2019-11-09 23:33:06,-7.02,113.87,84.29,66,1,4.54,clear sky,0.0,0.0
475,Kutum,SD,2019-11-09 23:33:06,14.2,24.66,68.99,23,9,8.08,clear sky,0.0,0.0
476,Rexburg,US,2019-11-09 23:33:06,43.82,-111.79,53.6,30,1,3.36,clear sky,0.0,0.0
477,San Pedro,AR,2019-11-09 23:33:06,-33.68,-59.66,70.0,68,29,5.99,scattered clouds,0.0,0.0
478,Haines Junction,CA,2019-11-09 23:33:07,60.75,-137.51,1.15,94,0,6.58,clear sky,0.0,0.0
479,Betanzos,ES,2019-11-09 23:33:07,43.28,-8.21,55.0,71,20,10.29,few clouds,0.0,0.0
480,Clovis,US,2019-11-09 23:33:07,36.83,-119.7,80.6,29,1,2.04,clear sky,0.0,0.0
481,Luau,CD,2019-11-09 23:33:07,-10.7,22.23,65.14,89,100,3.98,light rain,0.31,0.0
482,Sattur,IN,2019-11-09 23:33:07,9.35,77.92,77.0,94,40,3.04,mist,0.0,0.0
483,Fernie,CA,2019-11-09 23:33:08,49.5,-115.06,44.6,64,90,21.92,overcast clouds,0.0,0.0
484,Kungurtug,RU,2019-11-09 23:33:08,50.6,97.53,18.21,86,100,1.23,overcast clouds,0.0,0.0
485,Taltal,CL,2019-11-09 23:33:08,-25.41,-70.49,55.0,88,64,2.98,broken clouds,0.0,0.0
486,Borogontsy,RU,2019-11-09 23:33:08,62.67,131.17,-17.85,94,0,5.14,clear sky,0.0,0.0
487,Minab,IR,2019-11-09 23:33:08,27.15,57.07,66.2,82,98,20.29,light rain,0.69,0.0
488,Borovoy,RU,2019-11-09 23:33:09,63.23,52.89,11.64,88,72,4.18,broken clouds,0.0,0.0
489,Salamanca,MX,2019-11-09 23:33:09,20.57,-101.19,78.8,31,40,5.82,scattered clouds,0.0,0.0
490,Oskemen,KZ,2019-11-09 23:33:09,49.96,82.61,33.8,100,90,8.95,overcast clouds,0.0,0.0
491,Bereznik,RU,2019-11-09 23:33:09,62.86,42.71,26.15,96,100,8.05,snow,0.0,2.25
492,Malvern,GB,2019-11-09 23:29:25,52.12,-2.33,41.0,100,90,9.17,moderate rain,0.0,0.0
493,Belomorsk,RU,2019-11-09 23:33:10,64.52,34.76,32.58,96,100,7.56,light rain,0.94,0.0
494,Tambilil,PH,2019-11-09 23:33:10,5.96,124.67,83.59,56,49,1.12,scattered clouds,0.0,0.0
495,Jeremie,HT,2019-11-09 23:33:10,18.65,-74.12,71.22,93,25,0.72,light rain,0.69,0.0
496,Morganton,US,2019-11-09 23:33:10,35.75,-81.69,42.8,55,1,3.02,clear sky,0.0,0.0
497,Quelimane,MZ,2019-11-09 23:33:10,-17.88,36.89,80.6,83,40,6.93,scattered clouds,0.0,0.0
498,Xichang,CN,2019-11-09 23:33:10,27.88,102.25,41.45,96,100,5.06,light rain,2.13,0.0
499,Plavinas,LV,2019-11-09 23:33:11,56.62,25.73,46.74,95,92,6.44,overcast clouds,0.0,0.0
500,Treinta Y Tres,UY,2019-11-09 23:33:11,-33.23,-54.39,60.44,95,91,12.5,overcast clouds,0.0,0.0
501,Bom Jesus,BR,2019-11-09 23:33:11,-9.08,-44.36,78.37,52,65,2.24,broken clouds,0.0,0.0
502,Comodoro Rivadavia,AR,2019-11-09 23:30:45,-45.87,-67.48,51.8,57,19,13.87,few clouds,0.0,0.0
503,Severo-Yeniseyskiy,RU,2019-11-09 23:33:12,60.37,93.04,-10.76,95,100,7.27,overcast clouds,0.0,0.0
504,Wadi Musa,JO,2019-11-09 23:33:12,30.32,35.48,64.13,33,2,23.0,clear sky,0.0,0.0
505,Vitim,RU,2019-11-09 23:33:12,59.44,112.57,8.08,92,100,9.71,light snow,0.0,0.19
506,Wooster,US,2019-11-09 23:33:12,40.8,-81.94,37.99,47,90,5.82,overcast clouds,0.0,0.0
507,Itupeva,BR,2019-11-09 23:33:13,-23.15,-47.06,75.2,73,90,12.75,light rain,1.5,0.0
508,Ekibastuz,KZ,2019-11-09 23:33:13,51.72,75.32,21.24,95,100,16.24,snow,0.0,2.19
509,Olga,US,2019-11-09 23:33:13,34.11,-118.17,91.4,16,1,3.36,clear sky,0.0,0.0
510,Uusikaupunki,FI,2019-11-09 23:33:13,60.8,21.41,41.0,93,90,5.82,light rain,0.0,0.0
511,Netarhat,IN,2019-11-09 23:33:13,23.45,84.31,61.47,98,75,3.47,broken clouds,0.0,0.0
512,Thinadhoo,MV,2019-11-09 23:33:14,0.53,72.93,81.55,77,81,8.34,broken clouds,0.0,0.0
513,Port Hedland,AU,2019-11-09 23:31:24,-20.31,118.58,78.8,31,22,6.93,few clouds,0.0,0.0
514,Manokwari,ID,2019-11-09 23:33:14,-0.87,134.08,80.02,68,91,3.67,light rain,0.12,0.0
515,Chulman,RU,2019-11-09 23:33:14,56.84,124.9,5.11,95,100,1.99,overcast clouds,0.0,0.0
516,Alekseyevka,RU,2019-11-09 23:33:14,53.25,50.49,30.2,86,75,4.47,broken clouds,0.0,0.0
517,Dudinka,RU,2019-11-09 23:33:15,69.41,86.18,-18.41,75,86,8.95,overcast clouds,0.0,0.0
518,Bubaque,GW,2019-11-09 23:33:15,11.28,-15.83,84.02,69,0,13.13,clear sky,0.0,0.0
519,Jining,CN,2019-11-09 23:33:15,35.41,116.58,55.0,36,0,17.72,clear sky,0.0,0.0
520,Prince Rupert,CA,2019-11-09 23:33:15,54.32,-130.32,51.8,81,90,10.29,overcast clouds,0.0,0.0
521,Pacific Grove,US,2019-11-09 23:31:28,36.62,-121.92,75.0,77,1,5.82,clear sky,0.0,0.0
522,Port Pirie,AU,2019-11-09 23:33:15,-33.18,138.01,60.8,63,40,6.93,scattered clouds,0.0,0.0
523,Esil,KZ,2019-11-09 23:33:16,51.96,66.41,11.48,89,15,10.13,few clouds,0.0,0.0
524,Jalu,LY,2019-11-09 23:33:16,29.03,21.55,73.44,25,76,10.71,broken clouds,0.0,0.0
525,Bhakkar,PK,2019-11-09 23:33:16,31.63,71.07,63.3,34,0,3.22,clear sky,0.0,0.0
526,Kostomuksha,RU,2019-11-09 23:33:16,64.59,30.6,28.45,98,100,5.44,overcast clouds,0.0,0.0
527,Kapit,MY,2019-11-09 23:33:17,2.02,112.94,75.15,93,96,1.01,overcast clouds,0.0,0.0
528,Slatina,HR,2019-11-09 23:33:17,45.7,17.7,50.0,99,100,4.52,light rain,0.63,0.0
529,Zabid,YE,2019-11-09 23:33:17,14.2,44.5,58.46,50,0,1.7,clear sky,0.0,0.0
530,Half Moon Bay,US,2019-11-09 23:33:17,37.46,-122.43,75.99,82,20,3.36,haze,0.0,0.0
531,Muskegon,US,2019-11-09 23:28:55,43.23,-86.25,43.0,60,75,13.87,light rain,0.0,0.0
532,Yishui,CN,2019-11-09 23:33:18,35.78,118.63,51.57,35,34,20.92,scattered clouds,0.0,0.0
533,Sueyoshi,JP,2019-11-09 23:33:18,31.65,131.02,53.6,93,0,6.93,clear sky,0.0,0.0
534,Kawalu,ID,2019-11-09 23:33:18,-7.38,108.21,73.08,77,19,2.13,few clouds,0.0,0.0
535,Antalaha,MG,2019-11-09 23:33:18,-14.9,50.28,78.19,76,70,8.25,broken clouds,0.0,0.0
536,Nabire,ID,2019-11-09 23:33:19,-3.36,135.5,83.46,63,100,1.32,overcast clouds,0.0,0.0
537,Mekhe,SN,2019-11-09 23:33:19,15.11,-16.62,75.2,73,59,17.22,broken clouds,0.0,0.0
538,Oeiras,BR,2019-11-09 23:33:19,-7.01,-42.13,82.2,44,79,0.67,broken clouds,0.0,0.0
539,Morant Bay,JM,2019-11-09 23:33:19,17.88,-76.41,84.2,66,40,9.17,thunderstorm,0.0,0.0
540,Sharkan,RU,2019-11-09 23:33:20,57.3,53.87,24.01,86,100,4.88,overcast clouds,0.0,0.0
541,Rayong,TH,2019-11-09 23:33:20,12.68,101.28,84.0,83,20,3.36,mist,0.0,0.0
542,Riom,FR,2019-11-09 23:33:20,45.89,3.11,43.0,75,90,10.29,overcast clouds,0.0,0.0
543,Xingtai,CN,2019-11-09 23:32:53,37.07,114.49,51.58,33,0,5.5,clear sky,0.0,0.0
544,Touros,BR,2019-11-09 23:33:20,-5.2,-35.46,77.0,78,20,8.05,few clouds,0.0,0.0
545,Loandjili,CG,2019-11-09 23:33:21,-4.77,11.87,78.8,94,75,1.12,broken clouds,0.0,0.0
546,Tete,MZ,2019-11-09 23:33:21,-16.16,33.59,84.2,62,61,9.17,broken clouds,0.0,0.0
547,Robertsport,LR,2019-11-09 23:33:21,6.75,-11.37,81.93,77,99,7.29,overcast clouds,0.0,0.0
548,Khilok,RU,2019-11-09 23:33:21,51.36,110.46,26.69,90,82,8.32,broken clouds,0.0,0.0
549,Lichtenburg,ZA,2019-11-09 23:33:22,-26.15,26.16,64.31,75,8,29.04,clear sky,0.0,0.0
550,Saurimo,AO,2019-11-09 23:33:22,-9.66,20.4,66.36,93,100,2.77,overcast clouds,0.0,0.0
551,Santa Isabel Do Rio Negro,BR,2019-11-09 23:33:22,-0.41,-65.02,79.03,80,38,2.98,scattered clouds,0.0,0.0
552,Lobatse,BW,2019-11-09 23:33:22,-25.21,25.68,69.8,64,71,20.8,broken clouds,0.0,0.0
553,Gien,FR,2019-11-09 23:33:22,47.69,2.63,42.01,98,100,1.99,light rain,1.69,0.0
554,Aki,JP,2019-11-09 23:33:22,33.51,133.91,55.4,62,20,8.05,few clouds,0.0,0.0
555,Angoche,MZ,2019-11-09 23:33:23,-16.23,39.91,76.78,92,28,2.3,scattered clouds,0.0,0.0
556,Macheng,CN,2019-11-09 23:33:23,31.18,115.03,59.85,46,22,1.61,few clouds,0.0,0.0
557,Bethanien,NA,2019-11-09 23:33:23,-26.5,17.16,63.54,29,0,4.54,clear sky,0.0,0.0
558,Newcastle,AU,2019-11-09 23:33:23,-32.93,151.78,73.0,28,0,12.75,clear sky,0.0,0.0
559,Abu Zabad,SD,2019-11-09 23:33:24,12.35,29.25,76.57,17,100,15.41,overcast clouds,0.0,0.0
560,Kalmunai,LK,2019-11-09 23:31:19,7.42,81.82,79.36,83,99,7.2,overcast clouds,0.0,0.0
561,Pokrovsk,RU,2019-11-09 23:33:24,61.48,129.14,-1.86,89,100,4.16,overcast clouds,0.0,0.0
562,Ogaminana,NG,2019-11-09 23:33:24,7.6,6.2,75.96,68,100,1.19,overcast clouds,0.0,0.0
563,Carbonia,IT,2019-11-09 23:33:24,39.17,8.53,53.6,71,20,5.82,few clouds,0.0,0.0
564,Novyy Urengoy,RU,2019-11-09 23:33:26,66.08,76.63,-11.55,96,41,7.99,scattered clouds,0.0,0.0
565,Nizhniy Tsasuchey,RU,2019-11-09 23:33:26,50.52,115.13,32.68,77,99,15.14,overcast clouds,0.0,0.0
566,Huainan,CN,2019-11-09 23:33:26,32.59,117.01,59.38,47,60,11.52,broken clouds,0.0,0.0
567,Sivas,TR,2019-11-09 23:33:26,39.75,37.01,37.4,55,0,4.7,clear sky,0.0,0.0
568,Idlib,SY,2019-11-09 23:33:26,35.93,36.64,60.8,63,40,2.91,scattered clouds,0.0,0.0
569,Tual,ID,2019-11-09 23:33:27,-5.67,132.75,82.62,73,100,2.39,overcast clouds,0.0,0.0
570,Allapalli,IN,2019-11-09 23:33:27,19.43,80.06,65.41,83,0,1.14,clear sky,0.0,0.0
571,Yulara,AU,2019-11-09 23:33:27,-25.24,130.99,73.4,16,0,17.22,clear sky,0.0,0.0
572,Bucal,PH,2019-11-09 23:33:27,14.19,121.17,81.0,88,75,3.36,broken clouds,0.0,0.0
573,Solwezi,ZM,2019-11-09 23:33:27,-12.18,26.4,72.09,47,73,6.06,broken clouds,0.0,0.0
574,Zabol,IR,2019-11-09 23:33:28,31.03,61.49,54.57,37,93,13.35,overcast clouds,0.0,0.0
575,Nador,MA,2019-11-09 23:33:28,35.17,-2.93,60.8,67,61,11.41,broken clouds,0.0,0.0
576,Ocean City,US,2019-11-09 23:33:28,30.44,-86.61,62.6,59,1,4.7,clear sky,0.0,0.0
577,Jesup,US,2019-11-09 23:33:28,31.61,-81.89,51.8,62,1,4.05,clear sky,0.0,0.0
578,Waddan,LY,2019-11-09 23:33:28,29.16,16.14,65.44,56,97,11.25,light rain,0.19,0.0
579,Godalming,GB,2019-11-09 23:33:29,51.19,-0.61,46.4,93,100,5.82,mist,0.0,0.0
580,Zhuhai,CN,2019-11-09 23:33:29,40.71,112.04,26.6,92,20,4.47,mist,0.0,0.0
581,Comarapa,BO,2019-11-09 23:33:29,-17.91,-64.53,63.23,84,48,2.93,light rain,0.31,0.0
582,Bagua Grande,PE,2019-11-09 23:33:30,-5.75,-78.44,64.26,84,70,1.25,light rain,0.69,0.0
583,Malkara,TR,2019-11-09 23:33:31,40.89,26.9,58.5,90,54,2.95,broken clouds,0.0,0.0
584,Boende,CD,2019-11-09 23:33:31,-0.28,20.88,70.97,90,31,1.83,scattered clouds,0.0,0.0
585,Santiago De Cao,PE,2019-11-09 23:33:31,-7.96,-79.24,64.4,82,40,10.29,haze,0.0,0.0
586,Sunel,IN,2019-11-09 23:33:31,24.37,75.96,68.45,62,0,2.91,clear sky,0.0,0.0
587,Dzilam Gonzalez,MX,2019-11-09 23:33:31,21.28,-88.93,82.0,72,24,25.99,few clouds,0.06,0.0
588,Vytegra,RU,2019-11-09 23:33:32,61.01,36.45,36.09,95,100,9.31,light rain,0.87,0.0
589,Hit,IQ,2019-11-09 23:33:32,33.64,42.83,64.35,24,39,7.65,scattered clouds,0.0,0.0
590,Siderno,IT,2019-11-09 23:33:32,38.28,16.3,60.8,47,20,2.24,few clouds,0.0,0.0
591,Chernyshevskiy,RU,2019-11-09 23:33:32,63.01,112.47,-6.49,93,69,7.16,broken clouds,0.0,0.0
592,Yatou,CM,2019-11-09 23:33:32,3.63,9.81,80.6,83,75,4.7,thunderstorm,0.0,0.0
593,Diego De Almagro,CL,2019-11-09 23:33:33,-26.39,-70.05,60.12,40,17,0.45,few clouds,0.0,0.0
594,Knokke-Heist,BE,2019-11-09 23:33:33,51.33,3.33,41.0,93,14,6.93,few clouds,0.0,0.0
595,Abu Samrah,SY,2019-11-09 23:33:33,35.3,37.18,67.01,33,57,4.97,broken clouds,0.0,0.0
596,Araguaina,BR,2019-11-09 23:33:33,-7.19,-48.21,81.09,63,55,6.08,light rain,0.19,0.0
597,Viedma,AR,2019-11-09 23:33:33,-40.81,-62.99,54.21,57,44,8.84,scattered clouds,0.0,0.0
598,Bria,CF,2019-11-09 23:33:34,6.54,21.99,69.33,76,100,3.11,overcast clouds,0.0,0.0
599,Kemlya,RU,2019-11-09 23:33:34,54.69,45.24,30.96,82,4,9.51,clear sky,0.0,0.0
600,Ust-Nera,RU,2019-11-09 23:33:34,64.57,143.24,-4.94,96,92,6.33,overcast clouds,0.0,0.0
601,High Level,CA,2019-11-09 23:33:34,58.52,-117.13,5.0,71,40,8.05,scattered clouds,0.0,0.0
602,Isiro,CD,2019-11-09 23:33:34,2.77,27.62,66.51,97,100,1.61,overcast clouds,0.0,0.0
603,Mago,RU,2019-11-09 23:33:35,53.27,140.15,20.48,62,0,7.31,clear sky,0.0,0.0
604,Dryden,CA,2019-11-09 23:31:34,49.79,-92.84,23.0,85,90,4.7,light snow,0.0,0.0
605,Adre,TD,2019-11-09 23:33:35,13.47,22.2,73.38,19,78,15.08,broken clouds,0.0,0.0
606,Botwood,CA,2019-11-09 23:33:35,49.14,-55.34,30.2,68,40,19.46,scattered clouds,0.0,0.0
607,Manaus,BR,2019-11-09 23:32:37,-3.13,-59.98,77.0,94,75,5.82,broken clouds,0.0,0.0
608,Vondrozo,MG,2019-11-09 23:33:36,-22.82,47.32,72.63,82,100,3.58,overcast clouds,0.0,0.0
609,Tirumullaivasal,IN,2019-11-09 23:33:36,11.24,79.84,81.79,78,5,10.0,light rain,1.56,0.0
610,Ostrovnoy,RU,2019-11-09 23:33:36,68.05,39.51,17.02,94,97,3.31,overcast clouds,0.0,0.0
611,Rovaniemi,FI,2019-11-09 23:33:36,66.5,25.72,6.8,92,100,11.41,overcast clouds,0.0,0.0
612,Kununurra,AU,2019-11-09 23:33:37,-15.77,128.74,86.0,62,87,3.36,overcast clouds,0.0,0.0
613,Tokur,RU,2019-11-09 23:33:37,53.13,132.9,3.69,72,0,1.86,clear sky,0.0,0.0
614,Lexington,US,2019-11-09 23:33:37,38.05,-84.5,46.4,48,40,4.7,scattered clouds,0.0,0.0
615,Suamico,US,2019-11-09 23:33:37,44.63,-88.04,37.4,64,1,8.08,clear sky,0.0,0.0
616,Zweibrucken,DE,2019-11-09 23:33:37,49.25,7.37,36.0,95,20,3.36,few clouds,0.0,0.0
617,Beyneu,KZ,2019-11-09 23:33:38,45.32,55.19,43.92,86,0,9.44,clear sky,0.0,0.0
618,Loiza,PR,2019-11-09 23:33:38,18.43,-65.88,82.4,78,20,5.82,few clouds,0.0,0.0
619,Myrtle Beach,US,2019-11-09 23:30:04,33.7,-78.89,51.8,93,1,8.93,clear sky,0.0,0.0
620,Kuito,AO,2019-11-09 23:33:38,-12.38,16.94,64.2,87,100,2.93,overcast clouds,0.0,0.0
621,Bam,IR,2019-11-09 23:33:38,29.11,58.36,56.55,36,44,8.34,scattered clouds,0.0,0.0
622,Greenwood,CA,2019-11-09 23:33:39,49.09,-118.68,46.99,70,94,1.03,overcast clouds,0.0,0.0
623,San Vicente De Canete,PE,2019-11-09 23:33:39,-13.08,-76.38,62.35,90,78,4.88,broken clouds,0.0,0.0
624,Nathdwara,IN,2019-11-09 23:33:39,24.93,73.82,68.0,61,40,4.12,scattered clouds,0.0,0.0
625,Chumikan,RU,2019-11-09 23:33:39,54.72,135.31,14.07,38,0,15.43,clear sky,0.0,0.0
626,Chichli,IN,2019-11-09 23:33:39,22.83,78.82,64.87,71,0,1.86,clear sky,0.0,0.0
627,Juazeiro,BR,2019-11-09 23:33:40,-9.43,-40.51,91.4,22,92,8.05,overcast clouds,0.0,0.0
628,Itarema,BR,2019-11-09 23:33:40,-2.92,-39.92,78.84,76,56,12.26,broken clouds,0.0,0.0
629,Lasa,CY,2019-11-09 23:33:40,34.92,32.53,66.2,52,0,10.29,clear sky,0.0,0.0
630,Lucapa,AO,2019-11-09 23:33:40,-8.42,20.74,67.6,97,100,2.17,moderate rain,3.19,0.0
631,Laguna,BZ,2019-11-09 23:33:40,16.17,-88.94,86.0,66,40,4.7,scattered clouds,0.0,0.0
632,Kirkwall,GB,2019-11-09 23:33:42,58.98,-2.96,41.0,60,58,9.17,broken clouds,0.0,0.0
633,Vyartsilya,RU,2019-11-09 23:33:42,62.18,30.69,35.65,98,100,6.38,overcast clouds,0.0,0.0
634,Naryan-Mar,RU,2019-11-09 23:33:43,67.67,53.09,1.44,96,0,7.61,clear sky,0.0,0.0
635,Muzhi,RU,2019-11-09 23:33:43,65.4,64.7,-1.56,91,9,2.8,clear sky,0.0,0.0
636,Suntar,RU,2019-11-09 23:33:43,62.16,117.65,17.91,93,99,6.33,overcast clouds,0.0,0.0
637,Tianpeng,CN,2019-11-09 23:33:43,28.88,112.34,63.01,59,76,5.86,broken clouds,0.0,0.0
638,Gondanglegi,ID,2019-11-09 23:33:43,-7.75,112.01,80.19,71,40,6.6,scattered clouds,0.0,0.0
639,Nouakchott,MR,2019-11-09 23:33:44,18.08,-15.98,77.0,29,64,10.29,broken clouds,0.0,0.0
640,Kudymkar,RU,2019-11-09 23:33:44,59.01,54.66,21.31,69,93,4.52,overcast clouds,0.0,0.0
641,Lumsden,CA,2019-11-09 23:33:44,50.65,-104.86,17.01,72,90,17.22,overcast clouds,0.0,0.0
642,Aykhal,RU,2019-11-09 23:33:44,65.95,111.51,-9.41,83,90,4.47,light snow,0.0,0.0
643,Lima,PE,2019-11-09 23:30:36,-12.06,-77.04,66.2,82,90,12.75,overcast clouds,0.0,0.0
644,Trat,TH,2019-11-09 23:33:45,12.25,102.51,81.0,76,41,16.87,scattered clouds,0.0,0.0
645,Abonnema,NG,2019-11-09 23:33:45,4.71,6.79,75.2,94,75,3.36,thunderstorm,0.0,0.0
646,Grimstad,NO,2019-11-09 23:33:45,66.94,13.72,21.2,67,20,16.11,few clouds,0.0,0.0
647,Winnemucca,US,2019-11-09 23:33:45,40.97,-117.74,69.8,9,1,6.93,clear sky,0.0,0.0
648,Zhezkazgan,KZ,2019-11-09 23:33:45,47.8,67.71,42.08,79,94,18.19,overcast clouds,0.0,0.0
649,Sompeta,IN,2019-11-09 23:33:46,18.93,84.6,71.94,78,71,3.33,broken clouds,0.0,0.0
650,Pathein,MM,2019-11-09 23:33:46,16.78,94.73,73.56,94,86,5.79,overcast clouds,0.0,0.0
651,Erdenet,MN,2019-11-09 23:33:46,49.03,104.04,27.07,62,35,7.96,scattered clouds,0.0,0.0
652,Praia Da Vitoria,PT,2019-11-09 23:33:46,38.73,-27.07,62.6,82,0,6.2,clear sky,0.0,0.0
653,Moosomin,CA,2019-11-09 23:33:46,50.14,-101.67,16.66,88,100,14.29,overcast clouds,0.0,0.0
654,Colonia,RO,2019-11-09 23:33:47,46.6,23.97,48.2,100,75,2.24,broken clouds,0.0,0.0
655,Camacari,BR,2019-11-09 23:33:47,-12.7,-38.32,80.6,78,20,17.22,few clouds,0.0,0.0
656,Seydi,NE,2019-11-09 23:33:47,13.34,7.75,80.94,18,0,5.17,clear sky,0.0,0.0
657,Eunice,US,2019-11-09 23:33:47,30.49,-92.42,59.0,41,1,4.99,clear sky,0.0,0.0
658,Bukachacha,RU,2019-11-09 23:33:47,52.99,116.91,23.23,96,100,1.59,light snow,0.0,1.0
659,Beitbridge,ZA,2019-11-09 23:33:48,-22.21,29.99,69.71,76,100,14.97,light rain,0.13,0.0
660,Mountain Home,US,2019-11-09 23:31:57,43.13,-115.69,57.2,32,1,3.36,haze,0.0,0.0
661,San Vicente,EC,2019-11-09 23:33:48,-0.59,-80.41,75.2,83,75,11.41,broken clouds,0.0,0.0
662,Ushtobe,KZ,2019-11-09 23:33:48,45.25,77.98,43.21,52,100,4.12,overcast clouds,0.0,0.0
663,Putina,PE,2019-11-09 23:33:49,-14.91,-69.87,46.4,75,75,11.41,broken clouds,0.0,0.0
664,Kabarnet,KE,2019-11-09 23:33:49,0.5,35.74,55.65,97,56,2.06,light rain,0.88,0.0
665,Kampong Thum,KH,2019-11-09 23:33:49,12.71,104.89,69.85,87,85,6.73,overcast clouds,0.0,0.0
666,Ambon,FR,2019-11-09 23:33:49,47.55,-2.56,48.99,87,40,10.29,scattered clouds,0.0,0.0
667,Kazerun,IR,2019-11-09 23:33:49,29.62,51.65,64.71,27,0,6.11,clear sky,0.0,0.0
668,Husavik,CA,2019-11-09 23:33:50,50.56,-96.99,23.0,82,100,10.0,light snow,0.0,0.25
669,Jieshou,CN,2019-11-09 23:33:50,33.26,115.35,58.1,41,17,13.22,few clouds,0.0,0.0
670,Malanje,AO,2019-11-09 23:33:50,-9.54,16.35,65.71,96,100,2.08,light rain,1.06,0.0
671,Benemerito De Las Americas,MX,2019-11-09 23:33:50,16.52,-90.64,74.19,95,12,3.51,light rain,0.69,0.0
672,Belorechensk,RU,2019-11-09 23:33:50,44.77,39.87,44.01,93,53,4.47,broken clouds,0.0,0.0
673,Nueva Concepcion,GT,2019-11-09 23:33:51,14.2,-91.3,87.8,70,40,6.93,scattered clouds,0.0,0.0
674,Grakhovo,RU,2019-11-09 23:33:51,56.05,51.96,26.6,79,90,8.95,overcast clouds,0.0,0.0
675,Swellendam,ZA,2019-11-09 23:33:51,-34.02,20.44,60.8,87,82,11.41,broken clouds,0.0,0.0
676,Pilar,AR,2019-11-09 23:33:51,-34.46,-58.91,68.0,77,20,13.87,few clouds,0.0,0.0
677,Novo Aripuana,BR,2019-11-09 23:33:51,-5.12,-60.38,77.83,85,83,3.02,light rain,1.31,0.0
